[
  {
    "title": "Siege of Fort Julien",
    "date": "1801-04-08T00:00:00Z",
    "description": "1801 siege during the French Campaign in Egypt and Syria",
    "wikiLink": "https://en.wikipedia.org/wiki/Siege_of_Fort_Julien",
    "lon": 30.376188,
    "lat": 31.458051
  },
  {
    "title": "Siege of Fort Julien",
    "date": "1801-04-01T00:00:00Z",
    "description": "1801 siege during the French Campaign in Egypt and Syria",
    "wikiLink": "https://en.wikipedia.org/wiki/Siege_of_Fort_Julien",
    "lon": 30.376188,
    "lat": 31.458051
  },
  {
    "title": "Battle of Alexandria",
    "date": "1801-03-21T00:00:00Z",
    "description": "1801 battle during the French Campaign in Egypt and Syria",
    "wikiLink": "https://en.wikipedia.org/wiki/Battle_of_Alexandria_(1801)",
    "lon": 29.95,
    "lat": 31.22
  },
  {
    "title": "Siege of Alexandria",
    "date": "1801-08-17T00:00:00Z",
    "description": "1801 siege during the French Campaign in Egypt and Syria",
    "wikiLink": "https://en.wikipedia.org/wiki/Siege_of_Alexandria_(1801)",
    "lon": 29.8800659,
    "lat": 31.2045796
  },
  {
    "title": "Second Battle of Abukir",
    "date": "1801-03-08T00:00:00Z",
    "description": "1801 second battle of the French campaign in Egypt and Syria to be fought at Abu Qir",
    "wikiLink": "https://en.wikipedia.org/wiki/Battle_of_Abukir_(1801)",
    "lon": 30.06833333,
    "lat": 31.31055556
  },
  {
    "title": "Battle of Mandora",
    "date": "1801-03-13T00:00:00Z",
    "description": "1801 battle during the French Campaign in Egypt and Syria",
    "wikiLink": "https://en.wikipedia.org/wiki/Battle_of_Mandora",
    "lon": 30.0125,
    "lat": 31.275
  },
  {
    "title": "Siege of Alexandria",
    "date": "1801-08-17T00:00:00Z",
    "description": "1801 siege during the French Campaign in Egypt and Syria",
    "wikiLink": "https://en.wikipedia.org/wiki/Siege_of_Alexandria_(1801)",
    "lon": 29.916666666,
    "lat": 31.2
  },
  {
    "title": "Siege of Porto Ferrajo",
    "date": "1801-05-02T00:00:00Z",
    "description": "1801 siege of the French Revolutionary Wars",
    "wikiLink": "https://en.wikipedia.org/wiki/Siege_of_Porto_Ferrajo",
    "lon": 10.316666666,
    "lat": 42.816666666
  },
  {
    "title": "Battle of Ujjain",
    "date": "1801-07-18T00:00:00Z",
    "description": "No description available.",
    "wikiLink": "https://en.wikipedia.org/wiki/Battle_of_Ujjain",
    "lon": 75.7,
    "lat": 23.1
  },
  {
    "title": "Siege of Cairo",
    "date": "1801-05-01T00:00:00Z",
    "description": "1801 siege during the French Campaign in Egypt and Syria",
    "wikiLink": "https://en.wikipedia.org/wiki/Siege_of_Cairo",
    "lon": 31.239444444,
    "lat": 30.056111111
  },
  {
    "title": "Second Battle of Abukir",
    "date": "1801-03-08T00:00:00Z",
    "description": "1801 second battle of the French campaign in Egypt and Syria to be fought at Abu Qir",
    "wikiLink": "https://en.wikipedia.org/wiki/Battle_of_Abukir_(1801)",
    "lon": 30.0683,
    "lat": 31.3106
  }
]