[
  {
    "title": "Battle of Austerlitz",
    "date": "1805-12-02T00:00:00Z",
    "description": "1805 battle during the War of the Third Coalition",
    "wikiLink": "https://en.wikipedia.org/wiki/Battle_of_Austerlitz",
    "lon": 16.7625,
    "lat": 49.128055555
  },
  {
    "title": "Battle of Ulm",
    "date": "1805-10-20T00:00:00Z",
    "description": "1805 battle during the War of the Third Coalition",
    "wikiLink": "https://en.wikipedia.org/wiki/Battle_of_Ulm",
    "lon": 9.983333333,
    "lat": 48.383333333
  },
  {
    "title": "Battle of Trafalgar",
    "date": "1805-10-21T00:00:00Z",
    "description": "1805 battle during the War of the Third Coalition",
    "wikiLink": "https://en.wikipedia.org/wiki/Battle_of_Trafalgar",
    "lon": -6.2,
    "lat": 36.25
  },
  {
    "title": "Battle of Elchingen",
    "date": "1805-10-14T00:00:00Z",
    "description": "1805 battle during the War of the Third Coalition",
    "wikiLink": "https://en.wikipedia.org/wiki/Battle_of_Elchingen",
    "lon": 10.090555555,
    "lat": 48.454166666
  },
  {
    "title": "Battle of Ivankovac",
    "date": "1805-08-18T00:00:00Z",
    "description": "1805 battle",
    "wikiLink": "https://en.wikipedia.org/wiki/Battle_of_Ivankovac",
    "lon": 21.4347,
    "lat": 43.9736
  },
  {
    "title": "Battle of Amstetten",
    "date": "1805-11-05T00:00:00Z",
    "description": "1805 battle during the War of the Third Coalition",
    "wikiLink": "https://en.wikipedia.org/wiki/Battle_of_Amstetten",
    "lon": 14.815555555,
    "lat": 48.124722222
  },
  {
    "title": "Battle of D\u00fcrenstein",
    "date": "1805-11-11T00:00:00Z",
    "description": "1805 battle during the War of the Third Coalition",
    "wikiLink": "https://en.wikipedia.org/wiki/Battle_of_D%C3%BCrenstein",
    "lon": 15.52027778,
    "lat": 48.38722222
  },
  {
    "title": "Battle of Haslach-Jungingen",
    "date": "1805-10-11T00:00:00Z",
    "description": "1805 battle during the War of the Third Coalition",
    "wikiLink": "https://en.wikipedia.org/wiki/Battle_of_Haslach-Jungingen",
    "lon": 9.98,
    "lat": 48.4
  },
  {
    "title": "Battle of Caldiero",
    "date": "1805-10-30T00:00:00Z",
    "description": "1805 battle during the War of the Third Coalition",
    "wikiLink": "https://en.wikipedia.org/wiki/Battle_of_Caldiero_(1805)",
    "lon": 11.190555555,
    "lat": 45.423888888
  },
  {
    "title": "Battle of Cape Ortegal",
    "date": "1805-11-04T00:00:00Z",
    "description": "1805 battle during the War of the Third Coalition",
    "wikiLink": "https://en.wikipedia.org/wiki/Battle_of_Cape_Ortegal",
    "lon": -7.857760317,
    "lat": 43.818046128
  },
  {
    "title": "Battle of Sch\u00f6ngrabern",
    "date": "1805-11-16T00:00:00Z",
    "description": "1805 battle during the War of the Third Coalition",
    "wikiLink": "https://en.wikipedia.org/wiki/Battle_of_Sch%C3%B6ngrabern",
    "lon": 16.06561111,
    "lat": 48.59258333
  },
  {
    "title": "Battle of Mariazell",
    "date": "1805-11-08T00:00:00Z",
    "description": "1805 battle during the War of the Third Coalition",
    "wikiLink": "https://en.wikipedia.org/wiki/Battle_of_Mariazell",
    "lon": 15.3164,
    "lat": 47.7731
  },
  {
    "title": "Battle of Cape Finisterre",
    "date": "1805-07-22T00:00:00Z",
    "description": "1805 naval battle during the War of the Third Coalition",
    "wikiLink": "https://en.wikipedia.org/wiki/Battle_of_Cape_Finisterre_(1805)",
    "lon": -9.27109,
    "lat": 42.8941
  },
  {
    "title": "Battle of Steyr",
    "date": "1805-11-04T00:00:00Z",
    "description": "1805 battle",
    "wikiLink": "https://en.wikipedia.org/wiki/Battle_of_Steyr",
    "lon": 14.4168,
    "lat": 48.05
  },
  {
    "title": "Battle of Wertingen",
    "date": "1805-10-08T00:00:00Z",
    "description": "1805 battle during the War of the Third Coalition",
    "wikiLink": "https://en.wikipedia.org/wiki/Battle_of_Wertingen",
    "lon": 10.6792,
    "lat": 48.5556
  },
  {
    "title": "Battle of Mehrnbach",
    "date": "1805-10-30T00:00:00Z",
    "description": "1805 battle during the War of the Third Coalition",
    "wikiLink": "https://en.wikipedia.org/wiki/Battle_of_Mehrnbach",
    "lon": 13.4894,
    "lat": 48.219
  },
  {
    "title": "Battle of Neresheim",
    "date": "1805-10-17T00:00:00Z",
    "description": "1805 battle",
    "wikiLink": "#",
    "lon": 10.3344,
    "lat": 48.7542
  },
  {
    "title": "Battle of Nerenstetten",
    "date": "1805-10-16T00:00:00Z",
    "description": "1805 battle",
    "wikiLink": "#",
    "lon": 10.0992,
    "lat": 48.5289
  },
  {
    "title": "Battle of Verona",
    "date": "1805-10-18T00:00:00Z",
    "description": "1805 battle during the War of the Third Coalition",
    "wikiLink": "https://en.wikipedia.org/wiki/Battle_of_Verona_(1805)",
    "lon": 10.9833,
    "lat": 45.4333
  },
  {
    "title": "Battle at Wischau",
    "date": "1805-11-28T00:00:00Z",
    "description": "1805 battle of Napoleonian Wars",
    "wikiLink": "https://en.wikipedia.org/wiki/Battle_of_Wischau",
    "lon": 16.9982,
    "lat": 49.2769
  },
  {
    "title": "Battle of Donauw\u00f6rth",
    "date": "1805-10-07T00:00:00Z",
    "description": "1805 battle during the War of the Third Coalition",
    "wikiLink": "https://en.wikipedia.org/wiki/Battle_of_Donauw%C3%B6rth",
    "lon": 10.8,
    "lat": 48.7
  },
  {
    "title": "Battle of G\u00fcnzburg",
    "date": "1805-10-09T00:00:00Z",
    "description": "1805 battle",
    "wikiLink": "#",
    "lon": 10.27,
    "lat": 48.45
  },
  {
    "title": "Battle of Memmingen",
    "date": "1805-10-14T00:00:00Z",
    "description": "1805 battle during the War of the Third Coalition",
    "wikiLink": "https://en.wikipedia.org/wiki/Battle_of_Memmingen",
    "lon": 10.1811,
    "lat": 47.9878
  },
  {
    "title": "Battle of G\u00fcnzburg",
    "date": "1805-10-09T00:00:00Z",
    "description": "1805 battle during the War of the Third Coalition}",
    "wikiLink": "https://en.wikipedia.org/wiki/Battle_of_G%C3%BCnzburg",
    "lon": 10.27,
    "lat": 48.45
  },
  {
    "title": "1805 State of the Union Address",
    "date": "1805-01-01T00:00:00Z",
    "description": "political address",
    "wikiLink": "https://en.wikipedia.org/wiki/1805_State_of_the_Union_Address",
    "lon": -77.008888888,
    "lat": 38.889722222
  },
  {
    "title": "1805 Molise earthquake",
    "date": "1805-07-26T00:00:00Z",
    "description": "Earthquake in Italy",
    "wikiLink": "https://en.wikipedia.org/wiki/1805_Molise_earthquake",
    "lon": 14.467,
    "lat": 41.5
  },
  {
    "title": "solar eclipse of December 21, 1805",
    "date": "1805-12-21T00:00:00Z",
    "description": "solar eclipse",
    "wikiLink": "#",
    "lon": -143.8,
    "lat": -83.1
  },
  {
    "title": "solar eclipse of December 21, 1805",
    "date": "1805-12-21T00:00:00Z",
    "description": "solar eclipse",
    "wikiLink": "#",
    "lon": -143.8,
    "lat": -83.1
  },
  {
    "title": "solar eclipse of June 26, 1805",
    "date": "1805-06-26T00:00:00Z",
    "description": "solar eclipse",
    "wikiLink": "#",
    "lon": -9.9,
    "lat": 65.5
  },
  {
    "title": "solar eclipse of June 26, 1805",
    "date": "1805-06-26T00:00:00Z",
    "description": "solar eclipse",
    "wikiLink": "#",
    "lon": -9.9,
    "lat": 65.5
  },
  {
    "title": "solar eclipse of July 26, 1805",
    "date": "1805-07-26T00:00:00Z",
    "description": "solar eclipse",
    "wikiLink": "#",
    "lon": 42.8,
    "lat": -63.2
  },
  {
    "title": "solar eclipse of July 26, 1805",
    "date": "1805-07-26T00:00:00Z",
    "description": "solar eclipse",
    "wikiLink": "#",
    "lon": 42.8,
    "lat": -63.2
  },
  {
    "title": "solar eclipse of January 1, 1805",
    "date": "1805-01-01T00:00:00Z",
    "description": "solar eclipse",
    "wikiLink": "#",
    "lon": -42.1,
    "lat": -65.0
  },
  {
    "title": "solar eclipse of January 1, 1805",
    "date": "1805-01-01T00:00:00Z",
    "description": "solar eclipse",
    "wikiLink": "#",
    "lon": -42.1,
    "lat": -65.0
  },
  {
    "title": "solar eclipse of January 30, 1805",
    "date": "1805-01-30T00:00:00Z",
    "description": "solar eclipse",
    "wikiLink": "#",
    "lon": -152.8,
    "lat": 62.7
  },
  {
    "title": "solar eclipse of January 30, 1805",
    "date": "1805-01-30T00:00:00Z",
    "description": "solar eclipse",
    "wikiLink": "#",
    "lon": -152.8,
    "lat": 62.7
  },
  {
    "title": "Canyon del Muerto Massacre",
    "date": "1805-01-17T00:00:00Z",
    "description": "1805 massacre of approximately 115 Navajo people by a Spanish military expedition led by Lt. Antonio Narbona.",
    "wikiLink": "#",
    "lon": -109.360323,
    "lat": 36.236643
  },
  {
    "title": "Yarramundi massacre, Hawkesbury River",
    "date": "1805-04-27T00:00:00Z",
    "description": "massacre in Australia",
    "wikiLink": "#",
    "lon": 150.876,
    "lat": -33.561
  },
  {
    "title": "Battle of Forano",
    "date": "1805-11-02T00:00:00Z",
    "description": "battle of the Third Coalition",
    "wikiLink": "https://en.wikipedia.org/wiki/Battle_of_Forano",
    "lon": 11.190555555,
    "lat": 45.423888888
  },
  {
    "title": "Plunder of Nancowry",
    "date": "1805-01-01T00:00:00Z",
    "description": "1805 engagement of the English Wars",
    "wikiLink": "https://en.wikipedia.org/wiki/Plunder_of_Nancowry",
    "lon": 93.55,
    "lat": 7.98
  },
  {
    "title": "Alwassa\u2013Gwandu campaign",
    "date": "1805-11-01T00:00:00Z",
    "description": "1805 military campaign",
    "wikiLink": "https://en.wikipedia.org/wiki/Alwassa%E2%80%93Gwandu_campaign",
    "lon": 4.6425,
    "lat": 12.502222222
  }
]